City_ID,City,Lat,Lng,Max Temp,Humidity,Cloudiness,Wind Speed,Country,Date
0,loa janan,-0.5876,117.0887,25.04,93,100,0.79,ID,1686134120
1,puerto natales,-51.7262,-72.506,3.34,72,40,6.59,CL,1686134121
2,papatowai,-46.5619,169.4708,4.52,82,17,2.05,NZ,1686134121
3,praia da vitoria,38.7392,-27.1563,16.51,82,97,9.16,PT,1686134122
4,udachny,66.4118,112.2517,11.21,58,95,8.68,RU,1686134123
5,port-aux-francais,-49.3498,70.22,2.77,99,100,13.81,TF,1686134123
6,bethel,60.7922,-161.7558,10.02,93,100,2.57,US,1686134124
7,junin de los andes,-39.9509,-71.0709,2.64,73,86,1.9,AR,1686134124
8,douglas,54.1498,-4.4779,12.98,67,75,6.69,IM,1686134125
9,west island,-12.1459,96.8423,27.03,74,75,6.69,CC,1686134126
10,tiksi,71.6366,128.8685,3.99,78,43,1.6,RU,1686134127
11,bargaal,11.2868,51.078,34.66,49,44,3.19,SO,1686134128
12,college,45.3266,-75.8386,12.57,64,75,4.47,CA,1686134128
13,tofol,5.326,163.0087,29.05,77,65,5.69,FM,1686134130
14,kodiak,57.79,-152.4072,6.73,100,100,3.6,US,1686134130
15,thompson,55.7433,-97.8635,19.1,100,100,1.54,CA,1686134131
16,touros,-5.1999,-35.4595,27.23,74,13,4.67,BR,1686134132
17,waitangi,-35.2705,174.0805,11.98,88,55,5.25,NZ,1686134132
18,grytviken,-54.2806,-36.5098,2.36,99,100,1.85,GS,1686134133
19,edinburgh of the seven seas,-37.0676,-12.3108,15.85,84,100,8.69,SH,1686134133
20,mount gambier,-37.8247,140.782,13.43,92,18,3.47,AU,1686134134
21,boulder city,35.9788,-114.8338,22.36,24,67,3.28,US,1686134134
22,ribeira grande,37.8225,-25.5195,17.19,82,20,11.83,PT,1686134135
23,pisco,-13.71,-76.203,18.94,77,100,2.06,PE,1686134136
24,susuman,62.7797,148.1536,14.02,54,98,2.34,RU,1686134136
25,pacific grove,36.6211,-121.9178,14.39,89,100,1.54,US,1686134137
26,okawara,35.5458,139.1205,23.1,89,99,2.32,JP,1686134137
27,ternate,45.7823,8.6903,24.03,64,0,2.57,IT,1686134138
28,georgetown,6.8137,-58.1624,25.99,89,20,1.03,GY,1686134138
29,banda aceh,5.5528,95.3193,28.64,74,100,6.33,ID,1686134139
30,buka,-5.2314,154.6315,27.52,77,22,1.79,PG,1686134139
31,ad dawadimi,24.4942,44.3833,37.6,12,2,5.01,SA,1686134140
32,ancud,-41.8682,-73.8287,7.71,87,100,4.07,CL,1686134141
33,nova sintra,14.8711,-24.6956,21.82,76,34,3.13,CV,1686134141
34,puerto armuelles,8.2726,-82.8604,23.52,90,61,2.24,PA,1686134142
35,ust-nera,64.5664,143.2378,6.18,98,100,1.35,RU,1686134142
36,adamstown,-25.0667,-130.1002,21.81,69,100,11.05,PN,1686134143
37,albany,42.6512,-73.755,12.43,92,100,0.0,US,1686134143
38,villa gesell,-37.2556,-56.9681,8.92,76,100,3.04,AR,1686134144
39,longyearbyen,78.2232,15.6464,4.15,75,75,2.57,SJ,1686134144
40,vorkuta,67.5036,64.0627,8.21,53,99,7.24,RU,1686134145
41,cabo san lucas,22.8939,-109.9201,21.9,62,7,0.89,MX,1686134145
42,rizokarpaso,35.5977,34.3807,24.11,69,0,2.54,CY,1686134146
43,petropavlovsk-kamchatsky,53.02,158.6471,8.06,83,61,0.5,RU,1686134146
44,anadyr,64.7317,177.5061,9.93,57,0,6.0,RU,1686134147
45,bishkek,42.8766,74.607,35.15,17,75,2.3,KG,1686134148
46,fort bragg,35.1403,-79.1541,19.86,85,0,1.54,US,1686134148
47,panitian,9.2187,117.9385,27.32,82,100,1.92,PH,1686134149
48,kapa'a,-33.929,18.4174,14.92,77,75,7.2,ZA,1686134149
49,dudinka,69.4061,86.1751,14.81,47,90,8.44,RU,1686134150
50,port alfred,-33.5982,26.8915,25.66,32,0,2.1,ZA,1686134150
51,fairfax,38.8462,-77.3064,15.74,78,100,1.54,US,1686134151
52,crane,31.3957,-102.3521,21.49,63,88,1.91,US,1686134151
53,tual,-5.639,132.7429,27.53,83,56,4.76,ID,1686134152
54,dunedin,-45.8741,170.5036,5.45,87,1,1.64,NZ,1686134152
55,stanley,-51.6951,-57.8492,5.19,75,97,11.38,FK,1686134153
56,hami,42.8174,93.5142,36.4,8,15,3.07,CN,1686134153
57,thunder bay,48.4064,-89.2598,3.06,100,20,1.54,CA,1686134123
58,robstown,27.7903,-97.6689,23.75,99,100,1.54,US,1686134154
59,el granada,37.5047,-122.4735,15.62,86,0,3.6,US,1686133862
60,ushuaia,-54.8061,-68.3185,2.83,87,20,1.54,AR,1686134155
61,vallenar,-28.575,-70.7616,14.7,72,96,0.95,CL,1686134156
62,san fernando de apure,7.8786,-67.4681,23.34,95,100,0.16,VE,1686134156
63,el rama,34.6179,36.3765,28.8,39,0,5.76,SY,1686134157
64,sinabang,2.4795,96.3806,28.1,77,86,1.42,ID,1686134157
65,antofagasta,-23.6509,-70.3975,15.46,85,1,0.11,CL,1686133693
66,ambovombe,-25.1784,46.0877,24.99,61,0,5.2,MG,1686134158
67,hithadhoo,1.7959,73.3876,28.64,73,85,4.39,MV,1686134159
68,puerto ayora,-0.7472,-90.3134,24.55,96,99,3.86,EC,1686134159
69,mount isa,-20.729,139.4932,20.92,56,83,0.0,AU,1686134160
70,ambatofinandrahana,-20.5507,46.8036,22.07,44,0,2.36,MG,1686134160
71,vilyuysk,63.7541,121.6265,14.69,45,65,3.77,RU,1686134161
72,yellowknife,62.4541,-114.3774,10.12,62,75,4.63,CA,1686134162
73,punta arenas,-53.1626,-70.9078,2.16,93,20,14.92,CL,1686134163
74,bubaque,11.2997,-15.8335,27.66,71,86,4.44,GW,1686134163
75,esmeralda,-28.0544,-51.1922,12.17,91,7,1.86,BR,1686134164
76,talnakh,69.494,88.3908,14.21,71,50,8.18,RU,1686134165
77,mulayjah,27.2728,48.425,43.91,10,34,3.35,SA,1686134166
78,newman,37.3139,-121.0204,15.13,82,30,0.89,US,1686134166
79,oranjemund,-28.5519,16.4284,16.72,58,81,6.77,NA,1686134167
80,kidal,18.4408,1.4075,38.83,8,3,3.06,ML,1686134168
81,sao joao da barra,-21.6349,-41.0487,15.06,81,0,1.97,BR,1686134168
82,bhawana,31.5682,72.6463,39.4,21,0,2.41,PK,1686134169
83,fortuna,40.5974,-124.156,13.38,95,100,0.0,US,1686134170
84,bredasdorp,-34.5331,20.0428,16.14,55,2,2.33,ZA,1686134170
85,weno,7.4401,151.857,25.47,94,100,2.06,FM,1686134171
86,luwuk,-0.9528,122.788,25.66,81,29,2.21,ID,1686134172
87,sorong,-0.8634,131.2545,26.61,85,100,3.57,ID,1686134172
88,puerto ayacucho,5.6576,-67.6044,22.32,97,82,1.44,VE,1686134173
89,qaqortoq,60.7182,-46.0385,3.02,86,89,1.72,GL,1686134173
90,blackmans bay,-43.0047,147.318,13.69,83,100,2.78,AU,1686134174
91,khost,33.3391,69.9206,31.99,20,0,4.98,AF,1686134175
92,castro,45.803,10.0671,25.0,50,99,1.34,IT,1686134176
93,iqaluit,63.7494,-68.5219,0.97,100,100,0.0,CA,1686134068
94,yendi,9.4466,-0.0035,33.06,50,39,3.47,GH,1686134177
95,kavieng,-2.5735,150.7952,28.07,79,84,3.52,PG,1686134177
96,dame-marie,48.8051,1.0167,22.33,58,0,5.27,FR,1686134178
97,fayetteville,36.0626,-94.1574,16.91,94,0,0.0,US,1686134179
98,invercargill,-46.4118,168.3471,3.9,91,9,2.12,NZ,1686134179
99,dambatta,12.4339,8.5151,22.06,35,82,4.25,NG,1686134180
100,ninotsminda,41.2653,43.5922,14.81,69,36,3.27,GE,1686134181
101,lihue,21.977,-159.3688,22.85,85,40,2.57,US,1686134181
102,plouzane,48.3817,-4.6212,20.13,71,0,5.66,FR,1686134182
103,jamestown,-15.9277,-5.7161,20.61,78,7,2.99,SH,1686134183
104,vadso,70.2267,29.7828,5.11,61,40,2.57,NO,1686134183
105,whitehorse,60.7216,-135.0549,7.43,70,40,4.63,CA,1686134184
106,pingliang,35.5432,106.6608,24.45,35,80,3.29,CN,1686134184
107,vernon,49.0918,1.4887,24.0,57,0,5.35,FR,1686134185
108,puerto deseado,-47.7516,-65.9013,6.42,50,100,8.33,AR,1686134186
109,iskateley,67.6762,53.1292,6.14,56,100,7.21,RU,1686134186
110,dum duma,27.57,95.554,40.05,23,48,2.5,IN,1686134187
111,constantia,44.1767,28.6508,24.37,53,87,5.82,RO,1686134156
112,ilulissat,69.2197,-51.0986,0.16,80,75,3.09,GL,1686134188
113,lazaro cardenas,20.225,-97.5931,22.78,85,5,1.51,MX,1686134189
114,enewetak,11.3409,162.3245,28.19,80,92,7.96,MH,1686134189
115,port lincoln,-34.7212,135.8592,13.72,70,20,10.18,AU,1686134190
116,yambio,4.5681,28.3977,32.76,41,48,2.07,SS,1686134191
117,alotau,-10.3061,150.4464,24.78,94,100,3.09,PG,1686134191
118,suomussalmi,64.8848,28.9146,14.82,31,37,1.57,FI,1686134192
119,saipan,15.191,145.7467,26.11,100,40,5.14,MP,1686134192
120,maintirano,-18.0609,44.024,28.92,49,0,4.39,MG,1686134193
121,mahina,-17.558,-149.4694,19.55,73,0,1.54,PF,1686134193
122,olyokminsk,60.373,120.4388,17.93,38,64,2.12,RU,1686134194
123,hell-ville,-13.4054,48.2743,26.8,68,1,2.38,MG,1686134195
124,nova zagora,42.4935,26.009,24.13,42,90,3.15,BG,1686134195
125,luderitz,-26.65,15.1573,16.9,61,5,5.67,NA,1686134196
126,maxixe,-11.0795,-42.1315,22.2,65,12,6.46,BR,1686134197
127,puebla,19.0436,-98.1981,16.73,70,95,0.28,MX,1686133743
128,yarmouth,52.6072,1.7315,16.39,78,0,5.96,GB,1686134198
129,avarua,-21.2075,-159.7708,22.99,73,75,3.6,CK,1686134198
130,port augusta,-32.4909,137.764,17.33,35,20,7.99,AU,1686134199
131,kataragama,6.4136,81.3324,32.97,53,30,9.18,LK,1686134199
132,ola,35.0323,-93.2232,18.97,94,9,1.18,US,1686134200
133,alghero,40.5597,8.3195,26.01,53,20,2.06,IT,1686133645
134,hayma',15.4662,44.2266,27.27,17,93,6.59,YE,1686134201
135,mayya,61.7422,130.2812,21.62,61,90,1.87,RU,1686134201
136,alpena,45.0617,-83.4328,13.14,76,0,3.09,US,1686134202
137,trinidad,10.443,-61.2613,24.66,93,20,0.0,TT,1686134203
138,greenville,34.8514,-82.3985,16.86,93,0,0.0,US,1686134058
139,wailua homesteads,22.0581,-159.3691,22.59,84,40,2.57,US,1686134204
140,acapulco de juarez,16.868,-99.894,25.71,78,40,1.03,MX,1686134204
141,yaritagua,10.0801,-69.1202,22.57,96,87,2.15,VE,1686134205
142,rongelap,11.1629,166.8943,27.86,85,100,8.07,MH,1686134205
143,larreynaga,12.144,-86.2452,25.9,89,40,0.0,NI,1686134206
144,san luis,-33.302,-66.337,12.68,80,100,1.94,AR,1686134207
145,tan-tan,28.4376,-11.0987,23.95,88,75,3.6,MA,1686134207
146,usinsk,65.9957,57.5571,7.78,52,100,6.4,RU,1686134208
147,ambodifotatra,-19.1786,48.8769,24.38,86,57,2.47,MG,1686134208
148,rio grande,-53.7857,-67.7016,0.02,93,0,4.63,AR,1686134209
149,conde,-11.813,-37.6139,24.69,87,44,1.42,BR,1686134209
150,skelleftea,64.752,20.9593,18.34,40,0,4.12,SE,1686134210
151,nykvarn,59.2,17.4167,19.49,38,0,3.77,SE,1686134211
152,egilsstadir,65.262,-14.4035,9.94,66,75,2.57,IS,1686134211
153,chivhu,-19.0187,30.8969,26.64,17,0,1.33,ZW,1686134212
154,puerto lempira,15.2656,-83.7741,24.22,95,92,1.96,HN,1686134212
155,margaret river,-33.9532,115.0769,14.12,74,97,5.18,AU,1686134213
156,mana,43.0818,0.9505,28.87,48,100,2.39,FR,1686134213
157,hadibu,12.6512,54.0237,30.47,73,80,6.2,YE,1686134214
158,igarka,67.4566,86.5308,17.91,45,100,5.85,RU,1686134214
159,olonkinbyen,70.9224,-8.716,0.34,92,86,4.2,SJ,1686134215
160,roma,41.8933,12.4829,27.95,50,0,2.57,IT,1686134215
161,jeremoabo,-10.0755,-38.3476,21.5,95,100,3.51,BR,1686134216
162,fuvahmulah,-0.2948,73.4241,29.01,70,50,2.97,MV,1686134216
163,kolonia,50.9384,6.96,23.86,63,75,3.09,DE,1686134217
164,villa sandino,11.9469,-85.9497,26.13,88,92,0.95,NI,1686134217
165,poltava,49.5897,34.5508,23.5,45,100,2.2,UA,1686134218
166,san francisco de la paz,14.8773,-86.1812,21.23,95,100,0.51,HN,1686134218
167,mar del plata,-37.9977,-57.5483,8.35,100,100,2.57,AR,1686134219
168,la passe,46.2035,-1.4601,27.23,70,54,3.45,FR,1686134219
169,selkirk,50.147,-96.8802,20.61,95,60,4.1,CA,1686134220
170,kaman,36.4636,50.138,27.6,46,80,4.05,IR,1686134220
171,korla,41.7239,86.1735,34.88,8,49,0.54,CN,1686134221
172,bilibino,68.055,166.4449,12.11,50,16,2.64,RU,1686134222
173,nagqu,31.4786,92.0498,13.15,33,83,2.79,CN,1686134223
174,coari,-4.0886,-63.1431,22.72,98,78,0.53,BR,1686134223
175,yanbu,24.0889,38.0667,40.04,31,0,4.63,SA,1686134224
176,villa regina,-39.0987,-67.0853,8.09,51,29,2.78,AR,1686134225
177,sombrerete,23.6354,-103.641,15.41,56,45,0.97,MX,1686134226
178,vilhena,-12.7369,-60.1466,18.0,64,91,1.36,BR,1686134226
179,kultali,22.0864,88.5941,34.28,51,40,9.0,IN,1686134227
180,rundu,-17.9137,19.7673,30.83,14,0,3.44,NA,1686134228
181,nova vicosa,-17.8908,-39.3725,24.13,65,0,3.1,BR,1686134229
182,bayanhongor,46.1937,100.7143,22.33,26,93,2.14,MN,1686134229
183,caleta de carquin,-11.0918,-77.6283,20.81,84,83,2.73,PE,1686134230
184,gemena,3.2549,19.7751,34.01,39,92,1.18,CD,1686134231
185,sinop,42.0266,35.1512,20.96,78,0,4.12,TR,1686134231
186,port mathurin,-19.6808,63.4221,24.88,71,11,7.98,MU,1686134232
187,howard springs,-12.497,131.047,27.95,66,84,1.2,AU,1686134233
188,bayeux,49.2765,-0.7025,18.14,76,5,6.42,FR,1686134233
189,holualoa,19.6238,-155.9536,20.85,87,38,2.24,US,1686134234
190,vilyuchinsk,52.9323,158.4058,8.17,86,72,0.79,RU,1686133700
191,hamilton,43.2557,-79.8732,14.84,57,20,7.2,CA,1686133723
192,aasiaat,68.7096,-52.8513,-0.76,81,97,5.79,GL,1686134236
193,laguna,-28.4837,-48.7817,15.56,78,6,2.01,BR,1686134237
194,solnechnyy,50.7238,136.6401,12.62,92,67,1.03,RU,1686134238
195,poronaysk,49.2216,143.1016,8.57,93,48,1.44,RU,1686134238
196,labuan bajo,-8.4944,119.8856,25.23,78,44,1.29,ID,1686134239
197,renqiu,38.7064,116.1062,30.21,26,81,4.71,CN,1686134239
198,taroa,12.43,-71.5763,27.73,84,100,9.16,CO,1686134240
199,guerrero negro,27.971,-114.0364,14.33,84,76,5.36,MX,1686134241
200,yangor,-0.5381,166.9115,28.79,77,85,5.53,NR,1686134241
201,sao gabriel da cachoeira,-0.125,-67.0814,22.17,99,69,0.47,BR,1686134242
202,ribeira brava,32.6701,-17.065,22.25,95,61,6.17,PT,1686134243
203,chonchi,-42.624,-73.7724,6.95,94,100,2.39,CL,1686134243
204,nikolayevsk-on-amure,53.1387,140.7249,11.34,80,8,2.06,RU,1686134244
205,ponta delgada,37.7394,-25.6684,17.4,82,20,11.83,PT,1686134244
206,alice springs,-23.698,133.8807,18.76,77,68,3.09,AU,1686133727
207,colonia,50.9384,6.96,23.86,63,75,3.09,DE,1686134217
208,ganye,8.4334,12.0672,26.32,74,100,1.47,NG,1686134246
209,afaahiti,-17.739,-149.29,23.51,67,93,7.53,PF,1686134247
210,port elizabeth,-33.9617,25.6208,23.06,33,0,2.57,ZA,1686134248
211,'ohonua,-21.3413,-174.9561,21.04,88,100,3.55,TO,1686134248
212,lembar,-8.7246,116.0904,27.34,85,22,4.47,ID,1686134249
213,stranraer,54.9044,-5.0262,12.27,82,70,1.29,GB,1686134250
214,pyriatyn,50.2361,32.5011,24.57,39,100,3.55,UA,1686134251
215,lebu,-37.61,-73.6559,10.58,79,94,1.93,CL,1686134251
216,saint-pierre,48.3833,7.4719,25.7,42,0,2.82,FR,1686134252
217,keflavik,63.9998,-22.5583,6.95,75,100,3.09,IS,1686133930
218,chinde,-18.5831,36.4616,27.54,55,0,3.65,MZ,1686134254
219,prince rupert,54.3127,-130.3255,10.69,93,0,1.03,CA,1686134254
220,carnarvon,-24.8826,113.6576,19.12,58,3,5.9,AU,1686134255
221,atherton,37.4538,-122.2058,15.59,82,0,2.06,US,1686134255
222,joshimath,30.5556,79.5613,20.29,57,78,3.38,IN,1686134256
223,bayramaly,37.6124,62.1717,39.87,5,1,3.4,TM,1686134256
224,kerikeri,-35.2273,173.9491,11.49,88,55,1.34,NZ,1686134257
225,kudahuvadhoo,2.6705,72.8906,28.64,75,51,4.73,MV,1686134257
226,arar,30.9816,41.0165,39.06,8,0,3.6,SA,1686134258
227,motueka,-41.1125,173.0095,6.13,88,1,1.55,NZ,1686134258
228,isafjordur,66.0727,-23.1194,8.05,66,40,3.6,IS,1686134259
229,tura,47.39,0.6889,26.64,50,24,4.63,FR,1686134260
230,almenara,39.7521,-0.2251,24.73,67,100,0.45,ES,1686134260
231,saint-junien,45.8872,0.9011,26.42,32,17,1.8,FR,1686134261
232,paracuru,-3.4144,-39.03,25.01,86,18,3.42,BR,1686134261
233,chemolgan,43.3712,76.6259,34.94,31,100,4.63,KZ,1686134262
234,puerto baquerizo moreno,-0.9026,-89.6102,25.58,78,92,4.73,EC,1686134262
235,misratah,32.3745,15.0905,23.03,68,14,5.19,LY,1686134263
236,yokadouma,3.5169,15.0521,27.08,75,100,1.24,CM,1686134263
237,hermanus,-34.4175,19.2361,17.13,59,12,3.51,ZA,1686134264
238,yorkton,51.212,-102.4612,16.9,94,0,2.57,CA,1686134265
239,anori,-3.7435,-61.6605,23.13,98,98,0.12,BR,1686134265
240,tazovsky,67.4735,78.7149,11.08,76,99,4.34,RU,1686134266
241,yurga,55.7136,84.9348,32.77,43,4,3.0,RU,1686134267
242,shahrud,36.4195,54.965,27.14,35,99,6.66,IR,1686134267
243,dingli,35.8604,14.3817,23.98,53,20,5.14,MT,1686134268
244,coquimbo,-29.9532,-71.338,12.93,87,100,2.06,CL,1686134268
245,las khorey,11.1603,48.1949,33.79,55,52,3.03,SO,1686134269
246,tolanaro,-25.0297,46.9904,25.88,78,20,6.17,MG,1686134269
247,kailua-kona,19.6419,-155.9969,23.06,88,27,2.24,US,1686134270
248,greve,55.5834,12.2999,23.57,32,0,1.03,DK,1686134270
249,juneau,58.3019,-134.4197,9.56,95,75,2.57,US,1686134271
250,itoman,26.106,127.6861,26.99,89,20,3.6,JP,1686134272
251,aoulef,26.9722,1.0787,39.21,13,13,8.62,DZ,1686134272
252,tafuna,-14.3278,-170.7255,27.9,89,75,8.75,AS,1686134273
253,rimouski,48.4502,-68.53,7.16,97,100,9.37,CA,1686134273
254,damnagar,21.6951,71.516,41.13,21,0,5.85,IN,1686134274
255,nouadhibou,20.9127,-17.0503,22.96,88,100,4.63,MR,1686134274
256,badger,42.6144,-94.1461,21.35,94,75,2.57,US,1686134228
257,el porvenir,15.4575,-92.2803,7.71,90,95,0.6,MX,1686134275
258,nemuro,43.3301,145.5829,10.54,99,85,3.62,JP,1686134276
259,monrovia,6.328,-10.7978,26.03,82,100,3.55,LR,1686134276
260,bayan nur,40.7419,107.382,25.58,22,25,10.56,CN,1686134277
261,malango,-2.9627,119.9001,18.94,88,27,1.07,ID,1686134277
262,laramie,41.3114,-105.5911,9.32,93,20,2.57,US,1686133882
263,shendi,16.6885,33.4323,39.48,21,73,3.25,SD,1686134278
264,paka,4.6369,103.436,28.96,84,20,2.06,MY,1686134279
265,port moresby,-9.4743,147.16,26.53,89,40,5.14,PG,1686134279
266,las heras,-46.5897,-68.9278,3.95,63,100,11.14,AR,1686134280
267,yuanping,38.7308,112.6995,27.37,25,43,5.15,CN,1686134280
268,sansanne-mango,10.357,0.477,33.98,47,93,3.51,TG,1686134281
269,goure,13.9862,10.2646,35.14,36,81,5.9,NE,1686134282
270,margate,51.3878,1.382,15.23,77,26,3.58,GB,1686134283
271,vila franca do campo,37.7172,-25.4335,17.23,88,87,9.27,PT,1686134284
272,inirida,3.865,-67.926,22.58,96,99,1.05,CO,1686134284
273,estherville,43.4027,-94.8364,21.37,81,20,2.57,US,1686134285
274,cole harbour,45.2594,-61.27,9.38,96,100,4.74,CA,1686134286
275,porbandar,21.6409,69.611,30.82,72,0,7.27,IN,1686134287
276,portland,45.5202,-122.6742,18.38,66,0,0.0,US,1686134096
277,bel ombre,-4.6194,55.4113,29.63,70,40,5.66,SC,1686134288
278,fort mcmurray,56.7292,-111.3885,9.77,81,0,2.06,CA,1686134122
279,birniwa,12.805,10.2238,34.64,38,100,5.64,NG,1686134291
280,christchurch,-43.531,172.6366,8.86,86,75,1.54,NZ,1686133805
281,hancheng,35.4763,110.4508,28.63,43,92,5.3,CN,1686134292
282,as sulaymaniyah,35.5571,45.4426,36.27,14,75,6.17,IQ,1686134292
283,vorgashor,67.5812,63.7837,8.02,51,100,7.49,RU,1686134293
284,hawaiian paradise park,19.585,-154.9731,21.66,95,100,3.09,US,1686134294
285,san patricio,27.9695,-97.7732,22.75,91,39,0.71,US,1686134294
286,hammerfest,70.6413,23.8361,2.44,87,75,3.09,NO,1686134295
287,katabu,10.6948,7.5116,29.52,56,100,3.42,NG,1686134296
288,nueva palestina,16.8175,-91.2611,20.09,97,81,1.18,MX,1686134296
289,klyuchi,56.3182,160.8422,4.28,95,97,1.84,RU,1686134297
290,hollabrunn,48.5489,16.0719,20.74,83,100,0.3,AT,1686134298
291,yung shue wan,22.2256,114.1117,30.62,84,100,0.45,HK,1686134298
292,iquique,-20.2141,-70.1525,18.19,77,17,1.63,CL,1686134299
293,yaren,-0.5471,166.9164,28.82,77,86,5.53,NR,1686134300
294,tyukhtet,56.5398,89.3115,24.16,60,46,7.37,RU,1686134300
295,prado,41.9204,-5.4204,18.93,81,100,5.2,ES,1686134301
296,koulikoro,12.8646,-7.5561,37.5,29,74,2.94,ML,1686134302
297,shangri-la,27.8453,99.7415,18.1,52,60,3.36,CN,1686134303
298,kaspiyskiy,46.2017,47.9202,25.01,31,40,1.0,RU,1686134303
299,lodja,-3.5242,23.5995,35.46,31,71,1.31,CD,1686134304
300,vila velha,-20.3297,-40.292,18.86,90,0,1.03,BR,1686134305
301,naze,5.452,7.0567,29.73,74,95,2.02,NG,1686134305
302,ouani,-12.134,44.4272,27.33,72,13,3.72,KM,1686134306
303,yashkul',46.1742,45.3435,24.87,28,100,2.82,RU,1686134307
304,kapuskasing,49.4167,-82.4333,5.0,75,20,3.09,CA,1686134307
305,ambon,47.5542,-2.5567,27.17,58,7,5.98,FR,1686134308
306,mayenne,48.3044,-0.618,25.0,44,27,4.93,FR,1686134309
307,mawu,34.4307,104.9176,19.5,49,72,1.72,CN,1686134309
308,santa cruz,28.4696,-16.2541,26.74,91,75,5.14,ES,1686133813
309,porto novo,6.4991,2.6253,27.88,62,85,3.87,BJ,1686134311
310,kribi,2.8656,9.892,27.95,76,100,2.76,CM,1686134311
311,yeppoon,-23.1348,150.7437,17.01,76,14,5.56,AU,1686134280
312,happy valley-goose bay,53.2964,-60.3112,4.29,93,100,10.29,CA,1686134313
313,fauske,67.2367,15.7844,0.37,100,100,1.37,NO,1686134314
314,plesetsk,62.7095,40.2844,12.2,40,86,2.54,RU,1686134314
315,crucecita,-34.6708,-58.356,17.97,92,75,3.09,AR,1686134315
316,chibougamau,49.9137,-74.3714,8.87,66,100,5.14,CA,1686134315
317,tralee,52.2693,-9.7054,18.43,53,61,3.7,IE,1686134316
318,piatykhatky,48.4124,33.7017,23.59,35,86,1.52,UA,1686134316
319,bargara,-24.8155,152.463,15.66,89,7,5.03,AU,1686134317
320,constitucion,-35.3318,-72.4119,13.19,87,78,1.71,CL,1686134317
321,kiunga,-6.116,141.2982,24.2,95,80,1.22,PG,1686134318
322,barra,-11.0893,-43.142,24.34,60,7,3.64,BR,1686134319
323,medina,24.4712,39.6111,40.17,6,0,6.69,SA,1686134319
324,korsun-shevchenkivskyi,49.418,31.2557,24.37,39,90,2.66,UA,1686134320
325,puerto san carlos,-12.6608,-63.55,22.18,77,98,0.7,BR,1686134320
326,quellon,-43.12,-73.6203,8.27,93,100,5.14,CL,1686134321
327,hasaki,35.753,140.8201,22.9,71,97,2.26,JP,1686134321
328,geraldton,-28.7704,114.6147,15.09,72,40,2.06,AU,1686134322
329,yei,4.0942,30.6757,27.46,56,48,1.69,SS,1686134322
330,sovetskaya gavan',48.9663,140.285,7.76,99,21,1.15,RU,1686134323
331,am djarass,16.0663,22.835,32.49,29,100,4.82,TD,1686134324
332,westport,41.1415,-73.3579,13.75,79,0,0.89,US,1686134300
333,sao vicente,-23.9604,-46.3847,20.01,26,0,1.7,BR,1686134325
334,saratamata,-15.2872,167.9906,25.92,72,96,7.68,VU,1686134325
335,tshikapa,-6.423,20.7888,36.51,30,3,0.92,CD,1686134326
336,nogliki,51.7954,143.1365,2.88,97,37,2.48,RU,1686134326
337,international falls,48.601,-93.4106,14.52,47,75,1.54,US,1686134327
338,yangjiang,21.8603,111.9777,26.81,88,100,2.93,CN,1686134327
339,menzelinsk,55.7256,53.1072,18.49,52,66,4.97,RU,1686134328
340,raton,36.8979,-104.4355,9.25,91,96,1.52,US,1686134328
341,kone,-21.0608,164.8619,19.56,67,32,2.08,NC,1686134329
342,toliara,-23.3542,43.6697,28.94,45,0,4.97,MG,1686134329
343,huaicheng,33.538,119.1325,26.04,55,100,4.58,CN,1686134330
344,vakfikebir,41.0472,39.2762,20.93,76,45,2.41,TR,1686134331
345,jaragua,-15.7529,-49.3344,18.5,49,22,1.39,BR,1686134331
346,kamaishi,39.2757,141.8858,16.08,93,19,0.47,JP,1686134332
347,kristiansund,63.2168,7.5453,9.36,87,75,7.72,NO,1686134332
348,fonte boa,-2.55,-66.9132,22.28,99,89,0.4,BR,1686134333
349,kingston,17.9712,-76.7928,27.9,91,20,7.2,JM,1686134333
350,queenstown,-45.0322,168.661,0.32,81,4,0.3,NZ,1686134334
351,lompoc,34.6392,-120.4579,13.77,86,100,3.13,US,1686134334
352,orcopampa,-15.954,-72.4859,19.19,42,0,0.2,PE,1686134335
353,codrington,51.5082,-2.3937,16.84,69,0,2.24,GB,1686134335
354,poinciana,28.1575,-81.4848,23.14,94,0,0.0,US,1686134336
355,castillos,-34.2003,-53.8608,16.73,97,91,2.55,UY,1686134336
356,arcelia,18.3186,-100.2818,23.99,83,18,0.49,MX,1686134337
357,riachao das neves,-11.7481,-44.911,23.08,46,17,1.14,BR,1686134337
358,pitimbu,-7.4728,-34.8112,25.2,80,30,2.29,BR,1686134338
359,norilsk,69.3498,88.2005,14.64,62,55,6.61,RU,1686134338
360,seredyna-buda,52.1887,34.0306,22.85,41,1,0.95,UA,1686134339
361,wad rawah,15.1638,33.1307,36.06,30,86,4.21,SD,1686134339
362,dickinson,46.8792,-102.7896,14.34,88,0,2.57,US,1686133978
363,st. john's,47.5615,-52.7126,9.8,97,100,5.66,CA,1686134340
364,illizi,26.5042,8.4799,31.82,17,46,2.08,DZ,1686134341
365,north bend,47.4958,-121.7849,17.28,76,0,0.45,US,1686134342
366,pimentel,39.4855,9.0655,27.15,42,20,3.6,IT,1686134342
367,patong,7.8994,98.3086,29.4,99,100,3.54,TH,1686134343
368,howrah,22.5736,88.3251,34.97,55,75,3.09,IN,1686134344
369,nadi,-17.7993,177.4179,22.0,88,75,2.06,FJ,1686134346
370,ulsteinvik,62.3427,5.8469,13.51,74,52,2.24,NO,1686134347
371,zhezqazghan,47.8043,67.7146,38.99,7,40,6.0,KZ,1686134347
372,hola,-1.4977,40.0349,33.34,36,5,6.48,KE,1686134348
373,xam nua,20.4152,104.0474,23.62,92,93,1.0,LA,1686134349
374,panaba,12.1373,-16.0391,29.14,37,87,2.82,GW,1686134350
375,malvan,16.0606,73.4669,30.93,65,54,3.58,IN,1686134350
376,kochenevo,55.0214,82.2077,29.66,25,2,3.57,RU,1686134351
377,santiago papasquiaro,25.046,-105.4208,17.11,64,81,1.58,MX,1686134352
378,alta,44.4971,34.1587,21.36,53,76,4.46,UA,1686134352
379,mogadishu,2.0349,45.3419,29.92,70,20,7.72,SO,1686134353
380,ballina,-28.8657,153.5659,14.32,65,50,0.88,AU,1686134353
381,mizan teferi,6.9953,35.5869,23.65,68,58,0.93,ET,1686134354
382,vershino-darasunskiy,52.366,115.5509,12.89,48,78,4.77,RU,1686134355
383,namsos,64.4666,11.3345,10.01,87,100,1.54,NO,1686134355
384,la'ie,21.6438,-157.9244,25.98,78,9,1.34,US,1686134356
385,villa union,-17.0919,-64.5892,20.65,95,75,0.85,BO,1686134357
386,albertina,-20.6616,-43.784,13.01,82,0,1.1,BR,1686134357
387,boyette,27.8384,-82.2853,24.41,86,40,2.06,US,1686134358
388,glen innes,-29.7379,151.7356,6.94,96,73,1.3,AU,1686134358
389,remire-montjoly,4.905,-52.2772,24.0,94,75,1.03,GF,1686134359
390,zima,53.9284,102.0527,24.94,49,60,0.38,RU,1686134360
391,julio de castilhos,-29.2287,-53.6825,14.03,86,83,2.22,BR,1686134360
392,ketchikan,55.3431,-131.6467,10.99,93,0,2.57,US,1686134361
393,la sarre,48.8001,-79.201,7.84,64,0,4.92,CA,1686134361
394,broken hill,-31.965,141.4511,16.44,88,48,8.36,AU,1686134362
395,nabire,-3.3603,135.5024,25.76,88,84,1.07,ID,1686134362
396,tanjung selor,2.8418,117.3687,25.66,93,96,0.37,ID,1686134363
397,serhiyivka,48.0002,29.0733,22.41,38,100,4.17,UA,1686134364
398,brookings,44.3115,-96.7984,22.0,68,0,2.06,US,1686134364
399,wotje,9.4527,170.2395,27.91,84,75,8.41,MH,1686134365
400,metlili chaamba,32.2605,3.6259,28.68,29,60,5.38,DZ,1686134365
401,labrador city,52.9423,-66.9177,3.95,93,100,7.72,CA,1686134366
402,sisimiut,66.9372,-53.6665,-0.78,78,99,2.58,GL,1686134366
403,seogwipo,33.2573,126.5153,19.04,86,99,2.26,KR,1686134367
404,east london,-33.0192,27.8999,25.64,41,0,1.03,ZA,1686134367
405,hassi messaoud,31.6957,6.0604,29.82,37,0,4.12,DZ,1686134368
406,uturoa,-16.7437,-151.4594,24.45,72,38,7.63,PF,1686134368
407,bonthe,7.5273,-12.502,28.54,71,97,2.03,SL,1686134369
408,kuta,-8.7278,115.173,26.97,88,20,2.68,ID,1686134370
409,trevelin,-43.0791,-71.464,1.69,91,91,1.45,AR,1686134371
410,kapoeta,4.7691,33.59,35.47,26,34,5.85,SS,1686134371
411,sitka,57.0525,-135.3376,10.9,76,100,2.06,US,1686134372
412,tanumah,18.9535,42.1703,24.5,36,56,3.36,SA,1686134372
413,thinadhoo,0.5326,72.9971,28.82,70,83,2.7,MV,1686134373
414,ormara,25.2106,64.6375,29.83,83,7,4.92,PK,1686134373
415,sirte,31.206,16.5836,22.77,74,1,7.72,LY,1686134374
416,assab,13.0091,42.7445,32.86,63,50,6.82,ER,1686134375
417,oban,56.4157,-5.4735,15.01,77,40,3.6,GB,1686134375
418,troitsko-pechorsk,62.7145,56.1854,11.05,58,99,4.51,RU,1686134376
419,rudsar,37.1382,50.2928,24.0,82,100,1.94,IR,1686134376
420,sandnessjoen,66.0215,12.6317,10.29,100,75,4.12,NO,1686134377
421,hopkinsville,36.8658,-87.489,17.95,72,91,1.99,US,1686134377
422,ascension,-7.9411,-14.3631,25.58,54,40,6.17,SH,1686134378
423,urumqi,43.4198,87.3195,23.14,14,21,4.07,CN,1686134378
424,thakhek,17.3946,104.8065,31.15,74,20,2.06,LA,1686134379
425,peniche,39.3566,-9.3813,23.81,83,80,8.66,PT,1686134380
426,waddan,29.1614,16.1413,32.69,26,36,7.07,LY,1686134380
427,valbo,60.6448,17.0123,18.58,34,81,2.11,SE,1686134381
428,la tuque,47.4411,-72.7851,10.13,81,100,3.09,CA,1686134382
429,mancio lima,-7.6146,-72.9053,20.7,99,91,0.5,BR,1686134382
430,piton saint-leu,-21.2172,55.3081,25.59,65,0,10.29,RE,1686134383
431,kloulklubed,7.0415,134.2565,26.18,80,100,5.6,PW,1686134383
432,sechura,-5.5575,-80.8223,22.98,78,49,4.11,PE,1686134384
433,nuku'alofa,-21.1343,-175.2018,21.19,100,100,0.51,TO,1686134384
434,kani keli,-12.9565,45.1053,30.92,71,0,4.1,YT,1686134385
435,beinamar,8.6698,15.3801,28.07,60,100,0.68,TD,1686134385
436,saint-philippe,45.3584,-73.479,12.68,80,100,4.63,CA,1686134386
437,siilinjarvi,63.0743,27.6623,11.66,64,100,2.57,FI,1686134386
438,lere,49.231,0.4984,25.84,67,0,5.23,FR,1686134387
439,iwanai,42.9798,140.5148,14.46,96,54,0.32,JP,1686134387
440,davyd-haradok,52.0549,27.2126,21.74,46,100,5.52,BY,1686134388
441,itaituba,-4.2625,-55.9878,24.32,86,11,1.19,BR,1686134388
442,fort st. john,56.2524,-120.8469,9.94,46,40,3.6,CA,1686134389
443,walvis bay,-22.9543,14.5075,15.05,58,0,4.36,NA,1686134390
444,taltal,-25.4078,-70.4858,13.84,81,25,0.68,CL,1686134390
445,edgewater,40.827,-73.9757,15.16,63,0,5.66,US,1686134391
446,kalabo,-14.995,22.6745,30.01,18,0,3.2,ZM,1686134391
447,nova olinda do norte,-3.8927,-59.0953,23.56,95,43,0.82,BR,1686134392
448,james island,13.3175,-16.3614,29.18,42,98,2.07,GM,1686134392
449,vanino,49.0905,140.2609,7.75,99,24,1.36,RU,1686134393
450,calvinia,-31.4694,19.7772,11.94,50,0,4.65,ZA,1686134393
451,borogontsy,62.6708,131.1661,17.31,64,100,2.46,RU,1686134394
452,anna regina,7.2623,-58.4823,25.7,85,100,1.4,GY,1686134395
453,piwniczna-zdroj,49.4406,20.7142,19.25,91,100,1.99,PL,1686134395
454,nueva gerona,21.8847,-82.8039,26.24,78,47,2.77,CU,1686134396
455,tutoia,-2.7618,-42.2759,24.51,89,84,3.73,BR,1686134198
456,brigantine,39.4101,-74.3646,16.67,80,100,2.57,US,1686134397
457,kalavad,22.2144,70.3834,41.27,32,0,8.77,IN,1686134397
458,veshenskaya,49.629,41.7251,21.89,47,55,3.19,RU,1686134398
459,susanville,40.4163,-120.653,12.84,83,0,1.54,US,1686134398
460,las palmas de gran canaria,28.1289,-15.4349,26.99,76,100,1.37,ES,1686133811
461,jolo,6.0537,121.0003,27.07,84,100,0.31,PH,1686134399
462,katsuura,35.1522,140.3207,20.11,81,73,1.86,JP,1686134400
463,shakawe,-18.3633,21.8398,30.75,14,0,3.66,BW,1686134400
464,mukalla,14.5425,49.1231,32.64,66,58,3.26,YE,1686134401
465,velikiye luki,56.3424,30.5279,22.61,38,35,4.16,RU,1686134401
466,januaria,-15.4875,-44.3611,19.87,61,49,2.31,BR,1686134402
467,pandan,-3.2874,104.193,25.0,93,90,1.68,ID,1686134403
468,kovel,51.2121,24.7089,13.38,88,100,5.89,UA,1686134404
469,plastun,44.759,136.2864,10.34,98,57,0.88,RU,1686134405
470,miranda,-20.2401,-56.3845,15.63,79,0,1.56,BR,1686134406
471,paharpur,32.1044,70.9707,38.63,25,3,1.84,PK,1686134407
472,pamandzi,-12.7983,45.2747,31.0,62,0,3.6,YT,1686134408
473,cambria,37.7814,-89.1192,19.41,79,40,4.12,US,1686134409
474,port isabel,26.0734,-97.2086,25.59,91,0,0.0,US,1686134409
475,inhambane,-23.866,35.3844,27.02,58,0,4.52,MZ,1686134410
476,palmer,61.5996,-149.1111,11.44,74,100,2.06,US,1686134411
477,sanchursk,56.9404,47.2527,17.73,49,38,3.57,RU,1686134411
478,matinha,-3.1022,-45.0322,24.41,93,54,0.77,BR,1686134412
479,mega,-0.6657,131.905,25.38,92,100,1.6,ID,1686134413
480,veydelevka,50.1519,38.4453,22.41,51,63,2.84,RU,1686134413
481,zunyi,27.7238,106.9191,23.79,80,47,3.08,CN,1686134414
482,ambalangoda,6.2389,80.0541,27.9,81,70,6.34,LK,1686134414
483,tubarjal,30.5007,38.2165,33.15,13,69,4.92,SA,1686134415
484,selfoss,63.9368,-21.0035,9.99,58,19,3.21,IS,1686134416
485,port douglas,-16.4846,145.4636,23.23,84,96,6.09,AU,1686134417
486,blythe,33.6135,-114.5938,21.25,40,0,2.57,US,1686134417
487,behshahr,36.6912,53.5434,23.96,72,100,3.55,IR,1686134418
488,calabozo,8.918,-67.4173,23.04,96,95,1.22,VE,1686134418
489,monroeville,40.4212,-79.7881,10.06,83,0,0.89,US,1686134419
490,arraial do cabo,-22.9663,-42.0244,16.94,94,0,2.06,BR,1686134420
491,woolgoolga,-30.1108,153.2,14.47,71,1,1.62,AU,1686134420
492,kittila,67.652,24.9095,9.21,71,75,1.03,FI,1686134421
493,el calafate,-50.3389,-72.2721,0.64,83,33,1.61,AR,1686134421
494,jaguarari,-10.2576,-40.1944,19.23,93,100,4.18,BR,1686134422
495,gracemere,-23.4576,150.4535,16.82,82,14,1.54,AU,1686134423
496,stephenville,32.2192,-98.2131,19.35,94,100,0.0,US,1686134423
497,golfito,8.6389,-83.1685,24.29,95,83,0.95,CR,1686134424
498,blackfoot,43.19,-112.3484,14.09,84,7,2.36,US,1686134425
499,beichengqu,38.5085,114.9739,31.07,23,87,5.28,CN,1686134425
500,daokou,35.2708,118.7049,28.96,43,100,5.28,CN,1686134426
501,kabo,11.8557,8.1775,21.77,40,100,3.24,NG,1686134426
502,beau vallon,-20.4298,57.7118,24.23,88,75,1.54,MU,1686134427
503,iskushuban,10.2828,50.2307,38.68,23,89,7.94,SO,1686134428
504,mercedes,-24.4505,-54.1647,15.18,81,0,3.79,BR,1686134428
505,cromer,52.9311,1.3013,13.93,71,0,5.36,GB,1686134429
506,kunashak,55.699,61.5509,17.45,86,100,7.65,RU,1686134430
507,masaka,55.7527,37.6172,22.53,44,86,5.53,RU,1686133959
508,mata-utu,-13.282,-176.174,27.43,73,42,1.82,WF,1686134431
509,cidade velha,-1.4619,-48.5028,26.04,83,75,2.57,BR,1686134431
510,wagar,33.8568,75.2613,21.55,50,61,0.59,IN,1686134432
511,san rafael del sur,11.8465,-86.4389,25.57,88,88,1.58,NI,1686134433
512,stayton,44.8007,-122.7945,16.49,95,6,1.94,US,1686134433
513,mount pearl,47.5189,-52.8145,9.18,96,100,5.66,CA,1686134434
514,opuwo,-18.055,13.8387,27.69,16,0,1.41,NA,1686134435
515,hailey,43.5196,-114.3153,12.71,75,0,3.58,US,1686134435
516,bukoba,-1.3312,31.8126,25.94,61,40,2.57,TZ,1686134436
517,nar'yan-mar,67.638,53.0071,6.1,56,100,7.24,RU,1686134437
518,akrehamn,59.2608,5.186,15.01,67,0,10.8,NO,1686134437
519,ghadamis,30.1258,9.4901,29.78,30,79,3.64,LY,1686134438
520,asau,46.4389,26.4008,20.69,42,99,3.04,RO,1686134438
521,shiyan,32.6315,110.7928,22.26,74,87,2.37,CN,1686134439
522,lerwick,60.1531,-1.1427,13.01,74,100,4.01,GB,1686134439
523,bertoua,4.5777,13.6844,25.43,83,100,2.4,CM,1686134440
524,akureyri,65.6839,-18.1122,9.66,57,0,3.6,IS,1686134440
525,gargalianoi,37.0656,21.6374,24.19,65,95,2.29,GR,1686134441
526,atlanta,33.749,-84.3903,20.04,90,20,0.45,US,1686134219
527,rio de janeiro,-22.911,-43.2094,21.62,91,20,3.09,BR,1686134442
528,frutal,-20.022,-48.928,16.25,62,0,1.69,BR,1686134442
529,teguise,29.0593,-13.5602,22.0,88,20,3.09,ES,1686134443
530,antsiranana,-12.2779,49.2913,29.42,51,20,7.2,MG,1686134443
531,lensk,60.7145,114.9172,16.22,39,97,1.92,RU,1686134444
532,montevideo,-34.9059,-56.1913,16.89,94,100,4.63,UY,1686134444
533,ribas do rio pardo,-20.4478,-53.7609,14.77,76,0,1.7,BR,1686134445
534,barillas,41.971,-1.6627,21.72,61,100,3.36,ES,1686134446
535,sofifi,0.7348,127.5761,27.15,81,86,3.61,ID,1686134446
536,hakodate,41.7688,140.729,17.16,94,75,1.54,JP,1686134447
537,ilinge,59.0186,15.8646,22.4,32,0,3.69,SE,1686134447
538,balakhta,55.3832,91.6153,30.87,37,1,1.85,RU,1686134448
539,kathmandu,27.7083,85.3206,28.3,50,40,4.63,NP,1686134448
540,salalah,17.0175,54.1011,33.04,58,0,7.2,OM,1686134449
541,papao,12.6919,-16.3792,30.06,66,0,2.06,SN,1686134449
542,zouerate,22.7374,-12.4729,32.22,27,29,2.52,MR,1686134450
543,hobyo,5.3495,48.5264,29.76,67,80,12.0,SO,1686134450
544,new norfolk,-42.7802,147.0615,13.86,78,100,0.45,AU,1686134451
545,rabo de peixe,37.8083,-25.5851,17.04,82,20,11.83,PT,1686134452
546,cruzeiro do sul,-29.514,-51.9917,15.83,90,56,1.85,BR,1686134452
547,surin,46.0774,0.372,27.16,36,21,3.9,FR,1686134453
